{"streamflow (m^3\/s)":10,"stationID":"chapunata","lat":-15.988443,"long":-68.147449}
{"streamflow (m^3\/s)":15,"stationID":"chapunata","lat":-15.988443,"long":-68.147449}
{"streamflow (m^3\/s)":20,"stationID":"chapunata","lat":-15.988443,"long":-68.147449}
{"streamflow (m^3\/s)":15,"stationID":"chapunata","lat":-15.988443,"long":-68.147449}
{"streamflow (m^3\/s)":10,"stationID":"chapunata","lat":-15.988443,"long":-68.147449}
{"streamflow (m^3\/s)":15,"stationID":"chapunata","lat":-15.988443,"long":-68.147449}
{"streamflow (m^3\/s)":20,"stationID":"chapunata","lat":-15.988443,"long":-68.147449}
{"streamflow (m^3\/s)":15,"stationID":"chapunata","lat":-15.988443,"long":-68.147449}
{"streamflow (m^3\/s)":10,"stationID":"chapunata","lat":-15.988443,"long":-68.147449}
{"streamflow (m^3\/s)":15,"stationID":"chapunata","lat":-15.988443,"long":-68.147449}
{"streamflow (m^3\/s)":20,"stationID":"chapunata","lat":-15.988443,"long":-68.147449}
{"streamflow (m^3\/s)":15,"stationID":"chapunata","lat":-15.988443,"long":-68.147449}
{"streamflow (m^3\/s)":10,"stationID":"chapunata","lat":-15.988443,"long":-68.147449}
{"streamflow (m^3\/s)":15,"stationID":"chapunata","lat":-15.988443,"long":-68.147449}
{"streamflow (m^3\/s)":20,"stationID":"chapunata","lat":-15.988443,"long":-68.147449}
{"streamflow (m^3\/s)":15,"stationID":"chapunata","lat":-15.988443,"long":-68.147449}
{"streamflow (m^3\/s)":10,"stationID":"chapunata","lat":-15.988443,"long":-68.147449}
{"streamflow (m^3\/s)":10,"stationID":"dogata","lat":-14.850252,"long":-68.320937}
{"streamflow (m^3\/s)":15,"stationID":"dogata","lat":-14.850252,"long":-68.320937}
{"streamflow (m^3\/s)":20,"stationID":"dogata","lat":-14.850252,"long":-68.320937}
{"streamflow (m^3\/s)":15,"stationID":"dogata","lat":-14.850252,"long":-68.320937}
{"streamflow (m^3\/s)":10,"stationID":"dogata","lat":-14.850252,"long":-68.320937}
{"streamflow (m^3\/s)":15,"stationID":"dogata","lat":-14.850252,"long":-68.320937}
{"streamflow (m^3\/s)":20,"stationID":"dogata","lat":-14.850252,"long":-68.320937}
{"streamflow (m^3\/s)":15,"stationID":"dogata","lat":-14.850252,"long":-68.320937}
{"streamflow (m^3\/s)":10,"stationID":"dogata","lat":-14.850252,"long":-68.320937}
{"streamflow (m^3\/s)":15,"stationID":"dogata","lat":-14.850252,"long":-68.320937}
{"streamflow (m^3\/s)":20,"stationID":"dogata","lat":-14.850252,"long":-68.320937}
{"streamflow (m^3\/s)":15,"stationID":"dogata","lat":-14.850252,"long":-68.320937}
{"streamflow (m^3\/s)":10,"stationID":"dogata","lat":-14.850252,"long":-68.320937}
{"streamflow (m^3\/s)":15,"stationID":"dogata","lat":-14.850252,"long":-68.320937}
{"streamflow (m^3\/s)":20,"stationID":"dogata","lat":-14.850252,"long":-68.320937}
{"streamflow (m^3\/s)":15,"stationID":"dogata","lat":-14.850252,"long":-68.320937}
{"streamflow (m^3\/s)":10,"stationID":"dogata","lat":-14.850252,"long":-68.320937}
{"streamflow (m^3\/s)":10,"stationID":"Goku","lat":-16.386995,"long":-65.373507}
{"streamflow (m^3\/s)":15,"stationID":"Goku","lat":-16.386995,"long":-65.373507}
{"streamflow (m^3\/s)":20,"stationID":"Goku","lat":-16.386995,"long":-65.373507}
{"streamflow (m^3\/s)":15,"stationID":"Goku","lat":-16.386995,"long":-65.373507}
{"streamflow (m^3\/s)":10,"stationID":"Goku","lat":-16.386995,"long":-65.373507}
{"streamflow (m^3\/s)":15,"stationID":"Goku","lat":-16.386995,"long":-65.373507}
{"streamflow (m^3\/s)":20,"stationID":"Goku","lat":-16.386995,"long":-65.373507}
{"streamflow (m^3\/s)":15,"stationID":"Goku","lat":-16.386995,"long":-65.373507}
{"streamflow (m^3\/s)":10,"stationID":"Goku","lat":-16.386995,"long":-65.373507}
{"streamflow (m^3\/s)":15,"stationID":"Goku","lat":-16.386995,"long":-65.373507}
{"streamflow (m^3\/s)":20,"stationID":"Goku","lat":-16.386995,"long":-65.373507}
{"streamflow (m^3\/s)":15,"stationID":"Goku","lat":-16.386995,"long":-65.373507}
{"streamflow (m^3\/s)":10,"stationID":"Goku","lat":-16.386995,"long":-65.373507}
{"streamflow (m^3\/s)":15,"stationID":"Goku","lat":-16.386995,"long":-65.373507}
{"streamflow (m^3\/s)":20,"stationID":"Goku","lat":-16.386995,"long":-65.373507}
{"streamflow (m^3\/s)":15,"stationID":"Goku","lat":-16.386995,"long":-65.373507}
{"streamflow (m^3\/s)":10,"stationID":"Goku","lat":-16.386995,"long":-65.373507}
{"streamflow (m^3\/s)":10,"stationID":"Bananero","lat":-17.521926,"long":-59.193697}
{"streamflow (m^3\/s)":15,"stationID":"Bananero","lat":-17.521926,"long":-59.193697}
{"streamflow (m^3\/s)":20,"stationID":"Bananero","lat":-17.521926,"long":-59.193697}
{"streamflow (m^3\/s)":15,"stationID":"Bananero","lat":-17.521926,"long":-59.193697}
{"streamflow (m^3\/s)":10,"stationID":"Bananero","lat":-17.521926,"long":-59.193697}
{"streamflow (m^3\/s)":15,"stationID":"Bananero","lat":-17.521926,"long":-59.193697}
{"streamflow (m^3\/s)":20,"stationID":"Bananero","lat":-17.521926,"long":-59.193697}
{"streamflow (m^3\/s)":15,"stationID":"Bananero","lat":-17.521926,"long":-59.193697}
{"streamflow (m^3\/s)":10,"stationID":"Bananero","lat":-17.521926,"long":-59.193697}
{"streamflow (m^3\/s)":15,"stationID":"Bananero","lat":-17.521926,"long":-59.193697}
{"streamflow (m^3\/s)":20,"stationID":"Bananero","lat":-17.521926,"long":-59.193697}
{"streamflow (m^3\/s)":15,"stationID":"Bananero","lat":-17.521926,"long":-59.193697}
{"streamflow (m^3\/s)":10,"stationID":"Bananero","lat":-17.521926,"long":-59.193697}
{"streamflow (m^3\/s)":15,"stationID":"Bananero","lat":-17.521926,"long":-59.193697}
{"streamflow (m^3\/s)":20,"stationID":"Bananero","lat":-17.521926,"long":-59.193697}
{"streamflow (m^3\/s)":15,"stationID":"Bananero","lat":-17.521926,"long":-59.193697}
{"streamflow (m^3\/s)":10,"stationID":"Bananero","lat":-17.521926,"long":-59.193697}
{"streamflow (m^3\/s)":10,"stationID":"Nietzche","lat":-10.980936,"long":-66.104912}
{"streamflow (m^3\/s)":15,"stationID":"Nietzche","lat":-10.980936,"long":-66.104912}
{"streamflow (m^3\/s)":20,"stationID":"Nietzche","lat":-10.980936,"long":-66.104912}
{"streamflow (m^3\/s)":15,"stationID":"Nietzche","lat":-10.980936,"long":-66.104912}
{"streamflow (m^3\/s)":10,"stationID":"Nietzche","lat":-10.980936,"long":-66.104912}
{"streamflow (m^3\/s)":15,"stationID":"Nietzche","lat":-10.980936,"long":-66.104912}
{"streamflow (m^3\/s)":20,"stationID":"Nietzche","lat":-10.980936,"long":-66.104912}
{"streamflow (m^3\/s)":15,"stationID":"Nietzche","lat":-10.980936,"long":-66.104912}
{"streamflow (m^3\/s)":10,"stationID":"Nietzche","lat":-10.980936,"long":-66.104912}
{"streamflow (m^3\/s)":15,"stationID":"Nietzche","lat":-10.980936,"long":-66.104912}
{"streamflow (m^3\/s)":20,"stationID":"Nietzche","lat":-10.980936,"long":-66.104912}
{"streamflow (m^3\/s)":15,"stationID":"Nietzche","lat":-10.980936,"long":-66.104912}
{"streamflow (m^3\/s)":10,"stationID":"Nietzche","lat":-10.980936,"long":-66.104912}
{"streamflow (m^3\/s)":15,"stationID":"Nietzche","lat":-10.980936,"long":-66.104912}
{"streamflow (m^3\/s)":20,"stationID":"Nietzche","lat":-10.980936,"long":-66.104912}
{"streamflow (m^3\/s)":15,"stationID":"Nietzche","lat":-10.980936,"long":-66.104912}
{"streamflow (m^3\/s)":10,"stationID":"Nietzche","lat":-10.980936,"long":-66.104912}